[
    { "name": "Brainerd",        "slug": "brainerd",        "region": "Brainerd Lakes",    "lat": 46.3580, "lng": -94.2008, "tier": 1 },
    { "name": "Baxter",          "slug": "baxter",          "region": "Brainerd Lakes",    "lat": 46.3438, "lng": -94.2879, "tier": 1 },
    { "name": "Nisswa",          "slug": "nisswa",          "region": "Brainerd Lakes",    "lat": 46.5205, "lng": -94.2886, "tier": 1 },
    { "name": "Walker",          "slug": "walker",          "region": "Brainerd Lakes",    "lat": 47.1006, "lng": -94.5872, "tier": 1 },
    { "name": "Alexandria",      "slug": "alexandria",      "region": "Alexandria Lakes",  "lat": 45.8852, "lng": -95.3775, "tier": 1 },
    { "name": "Detroit Lakes",   "slug": "detroit-lakes",   "region": "Lakes Country",     "lat": 46.8169, "lng": -95.8453, "tier": 1 },
    { "name": "Bemidji",         "slug": "bemidji",         "region": "Northern MN",       "lat": 47.4737, "lng": -94.8803, "tier": 1 },
    { "name": "Fergus Falls",    "slug": "fergus-falls",    "region": "Lakes Country",     "lat": 46.2830, "lng": -96.0779, "tier": 1 },
    { "name": "Grand Rapids",    "slug": "grand-rapids",    "region": "Northern Lakes",    "lat": 47.2372, "lng": -93.5302, "tier": 1 },

    { "name": "Willmar",         "slug": "willmar",         "region": "West Central MN",   "lat": 45.1219, "lng": -95.0436, "tier": 2 },
    { "name": "Spicer",          "slug": "spicer",          "region": "West Central MN",   "lat": 45.2330, "lng": -94.9436, "tier": 2 },
    { "name": "New London",      "slug": "new-london",      "region": "West Central MN",   "lat": 45.3019, "lng": -94.9441, "tier": 2 },
    { "name": "Forest Lake",     "slug": "forest-lake",     "region": "Twin Cities Metro", "lat": 45.2789, "lng": -92.9853, "tier": 2 },
    { "name": "White Bear Lake", "slug": "white-bear-lake", "region": "Twin Cities Metro", "lat": 45.0846, "lng": -92.9994, "tier": 2 },
    { "name": "Prior Lake",      "slug": "prior-lake",      "region": "Twin Cities Metro", "lat": 44.7133, "lng": -93.4225, "tier": 2 },
    { "name": "Waconia",         "slug": "waconia",         "region": "Twin Cities Metro", "lat": 44.8508, "lng": -93.7869, "tier": 2 },
    { "name": "Fairmont",        "slug": "fairmont",        "region": "Southern MN",       "lat": 43.6519, "lng": -94.4611, "tier": 2 },
    { "name": "Albert Lea",      "slug": "albert-lea",      "region": "Southern MN",       "lat": 43.6481, "lng": -93.3683, "tier": 2 },
    { "name": "Buffalo",         "slug": "buffalo",         "region": "Twin Cities Metro", "lat": 45.1719, "lng": -93.8744, "tier": 2 },

    { "name": "Chisago City",    "slug": "chisago-city",    "region": "Twin Cities Metro", "lat": 45.3736, "lng": -92.8869, "tier": 3 },
    { "name": "Lindstrom",       "slug": "lindstrom",       "region": "Twin Cities Metro", "lat": 45.3886, "lng": -92.8466, "tier": 3 },
    { "name": "Lakeville",       "slug": "lakeville",       "region": "Twin Cities Metro", "lat": 44.6497, "lng": -93.2428, "tier": 3 },
    { "name": "Chanhassen",      "slug": "chanhassen",      "region": "Twin Cities Metro", "lat": 44.8622, "lng": -93.5300, "tier": 3 },
    { "name": "Excelsior",       "slug": "excelsior",       "region": "Twin Cities Metro", "lat": 44.9030, "lng": -93.5663, "tier": 3 },
    { "name": "Mound",           "slug": "mound",           "region": "Twin Cities Metro", "lat": 44.9361, "lng": -93.6661, "tier": 3 },
    { "name": "Lino Lakes",      "slug": "lino-lakes",      "region": "Twin Cities Metro", "lat": 45.1608, "lng": -93.0860, "tier": 3 },
    { "name": "Big Lake",        "slug": "big-lake",        "region": "Central Lakes",     "lat": 45.3325, "lng": -93.7458, "tier": 3 },
    { "name": "Hutchinson",      "slug": "hutchinson",      "region": "Central Lakes",     "lat": 44.8881, "lng": -94.3697, "tier": 3 },
    { "name": "Faribault",       "slug": "faribault",       "region": "Southern MN",       "lat": 44.2950, "lng": -93.2688, "tier": 3 },
    { "name": "Shoreview",       "slug": "shoreview",       "region": "Twin Cities Metro", "lat": 45.0791, "lng": -93.1469, "tier": 3 },
    { "name": "Monticello",      "slug": "monticello",      "region": "Twin Cities Metro", "lat": 45.3055, "lng": -93.7944, "tier": 3 },
    { "name": "Worthington",     "slug": "worthington",     "region": "Southwest MN",      "lat": 43.6197, "lng": -95.5961, "tier": 3 }
]
